stop_id,stop_code,stop_name,stop_desc,stop_lat,stop_lon,zone_id,stop_url,location_type,parent_station,stop_timezone,wheelchair_boarding
n2376855121,,Karingachira,,9.9516908,76.3583345,,,0,,,0
n2376866788,,Railway Station,,9.9468775,76.3532115,,,0,,,0
n2580734253,,Pipeline Junction,,10.0051815,76.3128361,,,0,,,0
n2580734650,,Ernakulam Medical Centre,,9.99898,76.3138595,,,0,,,0
n2580734682,,Ernakulam Medical Centre,,9.999015,76.3140901,,,0,,,0
n2780917203,,KSRTC Bus Station,,10.1449925,76.2317568,,,0,,,0
n2923441825,6.0,Vyttila,,9.9687963,76.3217495,,,0,,,0
n2965446278,,Chendamangalam Junction,,10.1489359,76.2350714,,,0,,,0
n3367437300,,Koonammavu,,10.1005014,76.2639074,,,0,,,0
n3676244647,,Namborichante aal,,10.1485159,76.2279749,,,0,,,0
n3711605443,,Civil Station,,10.1488947,76.2304841,,,0,,,0
n3813525947,,Vai padi,,10.0397032,76.3007241,,,0,,,0
n3996661158,,Ravipuram,,9.9591537,76.2889962,,,0,,,0
n4665138939,,KMK Junction,,10.1446931,76.2277819,,,0,,,0
n4708279359,,Cheranelloor Signal,,10.0622019,76.2881063,,,0,,,0
n4708279361,,Naalam Mile,,10.1145735,76.2596751,,,0,,,0
n4708279363,,Millupadi,,10.1218792,76.2546248,,,0,,,0
n4708279366,,Khandakarnan veli,,10.1274256,76.2434247,,,0,,,0
n4708279367,,Vazhikulangara,,10.1341612,76.2400735,,,0,,,0
n4708733903,,Varapuzha,,10.0786023,76.2750767,,,0,,,0
n4731124415,,Municipal Junction,,10.1480679,76.2247396,,,0,,,0
n4733928387,,Manjumel Kavala,,10.0580774,76.2907347,,,0,,,0
n4735966321,,Jose Junction,,9.9672944,76.2862212,,,0,,,0
n4769428928,,Edappally Junction,,10.0250912,76.3073159,,,0,,,0
n4769428932,,Kunnumpuram,,10.0432261,76.2990611,,,0,,,0
n4769436232,,Petta,,9.9501589,76.3320668,,,0,,,0
n4769436233,,Champakkara,,9.9547409,76.3275696,,,0,,,0
n4769436235,,Vyttila Junction,,9.969624,76.3179598,,,0,,,0
n4805940485,,Kunnumpuram,,10.0434863,76.2986487,,,0,,,0
n4889056845,,Aluva Police Station,,10.1029556,76.3584376,,,0,,,0
n5295234430,,Medical Trust Hospital,,9.9631509,76.2879268,,,0,,,0
n5377832022,,Hill Palace,,9.9519381,76.3613205,,,0,,,0
n5377841321,,Vadakkekotta,,9.9531132,76.3404726,,,0,,,0
n5757830266,,Kizhakkambalam,,10.0362603,76.4079875,,,0,,,0
n5757830267,,Achappan Kavala,,10.030862,76.408022,,,0,,,0
n5757830268,,Morakkala Church,,10.017612,76.4022274,,,0,,,0
n5757830281,,Padathikara,,10.0012286,76.3944375,,,0,,,0
n5757830283,,FACT Club,,9.9843969,76.3955826,,,0,,,0
n5757830284,,Harimattam Ambalam,,9.9858864,76.3919432,,,0,,,0
n5757830285,,Ambalamedu Post Office,,9.9836258,76.3892634,,,0,,,0
n5757830286,,Kuzhikkad,,9.9779433,76.3849696,,,0,,,0
n5757830287,,Chakku Company,,9.9945697,76.396456,,,0,,,0
n5757830289,,HOC,,9.9707313,76.3810613,,,0,,,0
n5757830290,,Cochin Refinery,,9.9691994,76.3783832,,,0,,,0
n5757830291,,Jwalagiri,,9.9754332,76.3813003,,,0,,,0
n5757830294,,Kollanpady,,9.9565995,76.3655254,,,0,,,0
n5757830296,,IOC,,9.9635121,76.3742254,,,0,,,0
n5757830298,,Chitrapuzha,,9.959266,76.3671193,,,0,,,0
n5757830543,,Pipeline Junction,,10.0045621,76.3132997,,,0,,,0
n5757830549,,Vaishali,,9.9874521,76.3160497,,,0,,,0
n5757830551,,Puthiya Road Bypass Junction,,9.9926588,76.3151349,,,0,,,0
n5757830558,,Sub Station,,9.9633059,76.3190876,,,0,,,0
n5757830560,,OEN,,9.9609871,76.3218673,,,0,,,0
n6039119919,,NAD Kavala,,10.0696578,76.3856327,,,0,,,0
n6043556589,,Kunjattukara,,10.0653482,76.3899502,,,0,,,0
n6300587395,,Chakkaraparambu,,9.989384,76.3155185,,,0,,,0
n6996454939,,Nadakkavu,,9.8979466,76.3693632,,,0,,,0
n7068947210,,Elamkulam Junction,,9.9676489,76.3049747,,,0,,,0
n7068947211,,Elamkulam Junction,,9.9678782,76.3050171,,,0,,,0
n7099924088,,North Paravur,,10.1495163,76.2317707,,,0,,,0
n7102134354,,Thekke Naaluvazhi,,10.1404953,76.2294122,,,0,,,0
n7131595937,,Kadavanthra,,9.966629,76.2987001,,,0,,,0
n7151947331,,Peruvaaram,,10.1415319,76.2366632,,,0,,,0
n7151947332,,Peruvaaram,,10.1413386,76.2368672,,,0,,,0
n7151965119,,Cheriyappilly,,10.1235656,76.2449451,,,0,,,0
n7151965120,,Cheriyappilly,,10.12315,76.245264,,,0,,,0
n7175749752,,Kadavanthara Junction,,9.9674266,76.3000523,,,0,,,0
n7175922504,,Janatha,,9.9680792,76.312784,,,0,,,0
n7318526551,,IOC,,9.9637667,76.3743569,,,0,,,0
n7331575715,,Vadakkekotta,,9.9517694,76.3405789,,,0,,,0
n7385356083,,Thirumuppam,,10.0920449,76.2665516,,,0,,,0
n7459381031,,Kundanoor Junction,,9.9369963,76.318618,,,0,,,0
n7466613954,,Railway Station,,9.9468433,76.3533759,,,0,,,0
n7466807493,,Puthiyakavu Valavu,,9.9238681,76.3567448,,,0,,,0
n7466853226,,Valiyakulam,,9.9063352,76.3671886,,,0,,,0
n7489965846,,Twenty 20 Nagar,,10.0392189,76.4048565,,,0,,,0
n7817815907,,Puthankaavu,,9.8516092,76.3853985,,,0,,,0
n8463147704,,Kaloor Stadium,,10.0008478,76.2996397,,,0,,,0
n8463147707,,Mathrubhoomi,,9.9970327,76.2946244,,,0,,,0
n8463175619,,North Railway Station,,9.9885607,76.2859855,,,0,,,0
n8466849115,,KMK Junction,,10.143904,76.2278464,,,0,,,0
n8490729062,,Maharajas Ground,,9.973006,76.2849292,,,0,,,0
n8498628873,,Valanjambalam,,9.9645624,76.2889159,,,0,,,0
n8498634080,,Padma,,9.9818845,76.2827562,,,0,,,0
n8498637644,,Shenoys,,9.9759276,76.2842854,,,0,,,0
n8668423968,,Kacheripadi,,9.9863739,76.2832086,,,0,,,0
n8753072179,,Koonammavu,,10.1004419,76.2640509,,,0,,,0
n8753072180,,Naalam Mile,,10.1145295,76.2595824,,,0,,,0
n8753072181,,Millupadi,,10.1221407,76.25469,,,0,,,0
n8753072182,,Khandakarnan veli,,10.1271404,76.2433899,,,0,,,0
n8753072183,,Vazhikulangara,,10.1331896,76.240485,,,0,,,0
n8753072184,,Thekke Naaluvazhi,,10.1403449,76.2298943,,,0,,,0
n8753072187,,Cheranelloor Signal,,10.0608221,76.2891108,,,0,,,0
n8849981268,,Kavilnada,,10.1070508,76.261838,,,0,,,0
n8850032388,,Koonammavu Market,,10.102775,76.2635279,,,0,,,0
n8850041424,,Kavilnada,,10.1069349,76.2620037,,,0,,,0
n8868464441,,Sealord,,10.0547623,76.2924062,,,0,,,0
n8868464442,,Thaikkavu,,10.0510851,76.2938677,,,0,,,0
n9182568709,,Kesari,,10.141273,76.2334536,,,0,,,0
n9182568710,,Kesari,,10.1411422,76.2333208,,,0,,,0
n9182568712,,Poosharipadi,,10.1365771,76.238692,,,0,,,0
n9182568715,,Cheriyapilly Valavu,,10.1237065,76.2532429,,,0,,,0
n9182568716,,Cheriyapilly Valavu,,10.1237553,76.2524852,,,0,,,0
n9182595017,,Valluvalli,,10.1196706,76.2558111,,,0,,,0
n9182595018,,Valluvalli,,10.119058,76.2559882,,,0,,,0
n9182595019,,Athaani,,10.1167396,76.2575653,,,0,,,0
n9182595020,,Athaani,,10.1167502,76.2573454,,,0,,,0
n9182595023,,Kochal,,10.1125808,76.2603843,,,0,,,0
n9182595026,,Kappela,,10.1041732,76.2634595,,,0,,,0
n9182595027,,Kappela,,10.1042577,76.2635574,,,0,,,0
n9182595029,,Koonammavu Market,,10.1029361,76.2633904,,,0,,,0
n9182595032,,Mesthiripadi,,10.0971907,76.2652814,,,0,,,0
n9182595033,,Mesthiripadi,,10.0972734,76.2653102,,,0,,,0
n9182595034,,Thirumuppam,,10.0919611,76.2666605,,,0,,,0
n9182595035,,Sheddupadi,,10.0901374,76.2670416,,,0,,,0
n9182595036,,Sheddupadi,,10.0900101,76.2671891,,,0,,,0
n9182595037,,Pournami,,10.0873389,76.2680199,,,0,,,0
n9182595038,,Pournami,,10.08749,76.2681769,,,0,,,0
n9182595040,,Shappupadi,,10.0844258,76.269183,,,0,,,0
n9182595042,,Varapuzha,,10.0782672,76.2751614,,,0,,,0
n9182595043,,Pallipadi,,10.0693364,76.2852564,,,0,,,0
n9182595044,,Pallipadi,,10.0695794,76.2852698,,,0,,,0
n9182595045,,Manjumel Kavala,,10.0582682,76.2903727,,,0,,,0
n9182595046,,Sealord,,10.0552733,76.2919915,,,0,,,0
n9182595048,,Thaikkavu,,10.0508047,76.2938865,,,0,,,0
n9182595049,,Thattampadi,,10.0490312,76.2949419,,,0,,,0
n9182595050,,Thattampadi,,10.048915,76.2948695,,,0,,,0
n9182595051,,Vai padi,,10.0395194,76.3010573,,,0,,,0
n9182595053,,Ponevazhi,,10.0330089,76.3042733,,,0,,,0
n9182595054,,Ponevazhi,,10.0328583,76.3041915,,,0,,,0
n9182595055,,Al Ameen,,10.0286588,76.305546,,,0,,,0
n9182595056,,Al Ameen,,10.0285148,76.3053449,,,0,,,0
n9258708870,,Chalikkavattom,,9.9791637,76.3173665,,,0,,,0
n9258708871,,Geethanjali Junction,,9.9842693,76.3165907,,,0,,,0
n9258708872,,Edappally Junction,,10.0241621,76.3084576,,,0,,,0
n9258708876,,Palarivattam,,10.0045393,76.304989,,,0,,,0
n9280367793,3.0,Vyttila,,9.9693169,76.3215561,,,0,,,0
n9280367799,10.0,Vyttila,,9.9681235,76.3219397,,,0,,,0
n9280367800,11.0,Vyttila,,9.9679683,76.3219424,,,0,,,0
n9289531704,,Sree Venkateswara High School,,9.9467544,76.342699,,,0,,,0
n9300974347,,Chakkaraparambu,,9.9892625,76.3157384,,,0,,,0
n9300974351,,Pipeline,,10.0048828,76.3118398,,,0,,,0
n9300974353,,Palarivattom,,10.0026676,76.3062671,,,0,,,0
n9300974354,,Janatha,,10.0014252,76.3016112,,,0,,,0
n9300974355,,Janatha,,9.9679405,76.3129751,,,0,,,0
n9300974358,,Town Hall,,9.9911478,76.2879309,,,0,,,0
n9300974362,,Manorama Junction,,9.9655936,76.2946941,,,0,,,0
n9300974365,,Vyttila Devaswom Board,,9.9666641,76.3193125,,,0,,,0
n9310588323,,Vyttila Junction,,9.9685891,76.3174,,,0,,,0
n9310588324,,Convent,,9.9966237,76.3145006,,,0,,,0
n9310588327,,Vyttila Junction,,9.9688999,76.3186659,,,0,,,0
n9318037205,,Town Hall,,10.110049,76.3591566,,,0,,,0
n9318077921,,Government Hospital,,10.1053951,76.3545426,,,0,,,0
n9318077922,,Aluva KSRTC,,10.1068402,76.3559367,,,0,,,0
n9318077923,,Aluva Pump Junction,,10.1076107,76.3601773,,,0,,,0
n9318077924,,Bank Junction,,10.1126713,76.3533416,,,0,,,0
n9318077926,,Aluva,,10.1085363,76.3508164,,,0,,,0
n9318077927,,Aluva,,10.108175,76.3508646,,,0,,,0
n9318964492,,Karothukuzhi,,10.1056252,76.3507601,,,0,,,0
n9318964493,,Old Railway,,10.1076823,76.3569215,,,0,,,0
n9318964494,,Zeenath Junction,,10.1052287,76.358531,,,0,,,0
n9323217735,,Choondi,,10.0850027,76.3716604,,,0,,,0
n9323217736,,Choondi,,10.0849366,76.371592,,,0,,,0
n9323217738,,Colony Padi,,10.0875678,76.368103,,,0,,,0
n9323217739,,Colony Padi,,10.0876258,76.3682277,,,0,,,0
n9323217741,,Cochin Bank,,10.0885129,76.3648902,,,0,,,0
n9323217742,,Cochin Bank,,10.0885874,76.3654059,,,0,,,0
n9323217743,,Ashokapuram,,10.089375,76.3629539,,,0,,,0
n9323217744,,Ashokapuram,,10.0894222,76.3631635,,,0,,,0
n9323217746,,Carmel Hospital,,10.0901864,76.3614207,,,0,,,0
n9323217747,,Carmel Hospital,,10.0902745,76.3615786,,,0,,,0
n9323217748,,Andicompany,,10.0940291,76.3597444,,,0,,,0
n9323217749,,Andicompany,,10.0941586,76.3597622,,,0,,,0
n9323217750,,Assisi,,10.0960425,76.3588139,,,0,,,0
n9323217751,,Assisi,,10.0967695,76.3588102,,,0,,,0
n9323217752,,Aluva Power House,,10.1000398,76.3571924,,,0,,,0
n9323217753,,Aluva Power House,,10.0999441,76.3576088,,,0,,,0
n9323217754,,Aluva Police Station,,10.1028995,76.35848,,,0,,,0
n9323217756,,Zeenath Junction,,10.1044578,76.3588691,,,0,,,0
n9333520225,,Model Technical School,,9.9962388,76.2935137,,,0,,,0
n9333520229,,Aluva Palace,,10.1127353,76.3566555,,,0,,,0
n9333520230,,Najath Hospital,,10.1095705,76.3518906,,,0,,,0
n9336655770,,Shappupadi,,10.0843944,76.2691478,,,0,,,0
n9336655774,,SNDP Junction,,10.0800992,76.2731999,,,0,,,0
n9336655775,,SNDP Junction,,10.0802642,76.2732294,,,0,,,0
n9336655777,,Bramasthanam,,10.0467175,76.2968096,,,0,,,0
n9336655778,,Bramasthanam,,10.0471151,76.296224,,,0,,,0
n9340054458,,Oberon Mall,,10.0142255,76.3113919,,,0,,,0
n9340054460,,Edappally Junction,,10.0235744,76.3086976,,,0,,,0
n9344277805,,Thrippunithura,,9.9433357,76.3462158,,,0,,,2
n9344277806,,Taluk Hospital,,9.942215,76.346143,,,0,,,0
n9344277808,,Gandhi Square,,9.9428358,76.3351157,,,0,,,0
n9344277809,,Jayanthi Road Junction,,9.9411458,76.3320181,,,0,,,0
n9344277811,,Maradu,,9.9386954,76.3276622,,,0,,,0
n9344277815,,Pallinada,,9.9384959,76.3233116,,,0,,,0
n9344283617,,P S Mission Hospital,,9.9380494,76.3220698,,,0,,,0
n9344283622,,Bund,,9.9454178,76.3183241,,,0,,,0
n9344283623,,Thykoodam,,9.958555,76.318605,,,0,,,0
n9344283624,,Sub Station,,9.9628129,76.3185722,,,0,,,0
n9344283626,,Vyttila Junction,,9.9688797,76.3169709,,,0,,,0
n9345870247,,Vyttila Devaswom Board,,9.9665958,76.3193803,,,0,,,0
n9347272381,,Pallimukku Junction,,9.9648273,76.2868426,,,0,,,0
n9351755954,,Kannadikadu,,9.9494031,76.3184085,,,0,,,0
n9352281214,,Deshabhimani,,9.9986242,76.2965881,,,0,,,0
n9356171810,,Poothota,,9.8455299,76.3868373,,,0,,,0
n9356171811,,Puthankaavu,,9.8519762,76.3851687,,,0,,,0
n9356171813,,Punnakaveli,,9.8579248,76.3832375,,,0,,,0
n9356171814,,Punnakaveli,,9.8579856,76.3834092,,,0,,,0
n9356171816,,South Paravoor,,9.8634742,76.3819447,,,0,,,0
n9356194117,,South Paravoor,,9.8631068,76.3821485,,,0,,,0
n9356194118,,Chakkukulam,,9.8709843,76.3800136,,,0,,,0
n9356194119,,Chakkukulam,,9.8709394,76.3801396,,,0,,,0
n9356194120,,Karaparambu,,9.8741368,76.3783103,,,0,,,0
n9356194122,,Karaparambu,,9.8740416,76.3784632,,,0,,,0
n9356194123,,Colony Triveni,,9.8779723,76.3770389,,,0,,,0
n9356194124,,Colony Triveni,,9.8779063,76.377157,,,0,,,0
n9356194125,,Kochu Palli,,9.8822015,76.3754323,,,0,,,0
n9356194126,,Kochu Palli,,9.8824869,76.3754833,,,0,,,0
n9356194127,,Pathaam Mile,,9.8895989,76.3726361,,,0,,,0
n9356194128,,Pathaam Mile,,9.8897521,76.372683,,,0,,,0
n9356194129,,SNDP Junction,,9.8940156,76.3710013,,,0,,,0
n9356194130,,Udayamperoor,,9.8961981,76.3699123,,,0,,,0
n9356194133,,Mankayi Kavala,,9.9107119,76.3649422,,,0,,,0
n9356194134,,Mankayi Kavala,,9.9108334,76.3649744,,,0,,,0
n9356194135,,Udayamperoor Kavala,,9.9138679,76.3635904,,,0,,,0
n9356194136,,Udayamperoor Kavala,,9.9141996,76.363652,,,0,,,0
n9356194137,,Perumthrikovil,,9.9196846,76.3618711,,,0,,,0
n9356194139,,Puthiyakavu,,9.9244668,76.3590896,,,0,,,0
n9356194140,,Choorakkad Junction,,9.9304167,76.3547887,,,0,,,0
n9356194141,,Kinar,,9.9335647,76.353398,,,0,,,0
n9356194142,,Kinar,,9.9338104,76.3534878,,,0,,,0
n9356194143,,Kannankulangara Junction,,9.9386835,76.3514131,,,0,,,0
n9356194144,,Kannankulangara Junction,,9.9386756,76.3516572,,,0,,,0
n9356194145,,Kizhakkekotta,,9.9420731,76.3501176,,,0,,,0
n9356194147,,Kizhakke Kotta Junction,,9.9447744,76.3490045,,,0,,,0
n9356194149,,Thrippunithura,,9.9483635,76.34754,,,0,,,0
n9356194151,,S N Junction,,9.9540131,76.345063,,,0,,,0
n9356194152,,Petta East,,9.9515233,76.3356634,,,0,,,0
n9356194153,,Petta East,,9.9513818,76.335605,,,0,,,0
n9356194155,,Petta,,9.949892,76.3318725,,,0,,,0
n9356194156,,Champakkara,,9.9545309,76.3279596,,,0,,,0
n9356194157,,Thykoodam Junction,,9.9591263,76.3248298,,,0,,,0
n9356194158,,Thykoodam Junction,,9.9592663,76.3250604,,,0,,,0
n9356194159,,Thykoodam Metro Station,,9.9597788,76.3237622,,,0,,,0
n9356194160,,Thykoodam Metro Station,,9.9599162,76.3239554,,,0,,,0
n9356194161,,OEN,,9.9609042,76.3217962,,,0,,,0
n9356194162,,Elamkulam,,9.9670939,76.3086332,,,0,,,0
n9356194163,,Elamkulam,,9.9673026,76.3083422,,,0,,,0
n9356194164,,Kadavanthara Junction,,9.9680211,76.2997256,,,0,,,0
n9356194165,,Vijaya Hospital,,9.9705755,76.2986536,,,0,,,0
n9356194166,,Vinayaka,,9.9748815,76.297549,,,0,,,0
n9356194167,,Kumaranasan Junction,,9.9779601,76.2966444,,,0,,,0
n9356237188,,Kavitha,,9.9792667,76.2832206,,,0,,,0
n9356237189,,Petta Metro Station,,9.9523501,76.3300654,,,0,,,0
n9356237190,,Menakakotta,,9.9528146,76.3400151,,,0,,,0
n9356237191,,Statue Junction,,9.9448933,76.3460574,,,0,,,0
n9356237192,,Puthiyakavu,,9.9242396,76.3591218,,,0,,,0
n9356237193,,Valiyakulam,,9.9064183,76.366986,,,0,,,0
n9356237194,,Nadakkavu,,9.8987215,76.3689601,,,0,,,0
n9356237195,,Madam,,9.8856466,76.3740547,,,0,,,0
n9356237196,,Poothota,,9.8455823,76.386703,,,0,,,0
n9356237197,,Madam,,9.8859355,76.3743792,,,0,,,0
n9356237198,,Sub Station,,9.9632604,76.3192095,,,0,,,0
n9360637945,,Choorakkad Junction,,9.9302609,76.3548055,,,0,,,0
n9360681870,,SNDP Junction,,9.8938887,76.3709449,,,0,,,0
n9360681871,,Petta Metro Station,,9.952321,76.3303551,,,0,,,0
n9362413273,,Market Junction,,9.9455076,76.3505951,,,0,,,0
n9362413274,,Market Junction,,9.9456053,76.3505253,,,0,,,0
n9362413275,,RCM Hospital,,9.9465934,76.3519549,,,0,,,0
n9362413276,,RCM Hospital,,9.9464481,76.3518745,,,0,,,0
n9362413277,,Chathari,,9.9490068,76.3553761,,,0,,,0
n9362413278,,Chathari,,9.9488826,76.355297,,,0,,,0
n9362413279,,Karingachira,,9.9510859,76.3580181,,,0,,,0
n9363912647,,Alliance Junction,,9.9541117,76.3438442,,,0,,,0
n9373621992,,Vyttila Devaswom Board,,9.9664604,76.3194114,,,0,,,0
n9375762782,,Puthiyakavu Valavu,,9.9241907,76.3565033,,,0,,,0
n9375762783,,Electricity Shop,,9.9015275,76.368531,,,0,,,0
n9375762784,,Electricity Shop,,9.9013386,76.3684022,,,0,,,0
n9375762789,,Manakunnam,,9.8602265,76.3825402,,,0,,,0
n9379961865,,Kizhakke Kotta Junction,,9.9450796,76.3490447,,,0,,,0
n9388068945,,Statue Junction,,9.9449871,76.346384,,,0,,,0
n9388068946,,Hill Palace,,9.9521466,76.3614956,,,0,,,0
n9388068947,,Ambalamugal Ambalam,,9.9555255,76.361517,,,0,,,0
n9388068948,,Ambalamugal Ambalam,,9.9557184,76.3615465,,,0,,,0
n9388068949,,Kollanpady,,9.9564872,76.3656074,,,0,,,0
n9388068950,,Chitrapuzha,,9.9592426,76.3674876,,,0,,,0
n9388068951,,PDPP,,9.9669829,76.377688,,,0,,,0
n9388068952,,PDPP,,9.9669301,76.3774654,,,0,,,0
n9388068953,,Cochin Refinery,,9.9692865,76.3786563,,,0,,,0
n9388068954,,HOC,,9.9708768,76.3810462,,,0,,,0
n9388068955,,Jwalagiri,,9.9753412,76.3813519,,,0,,,0
n9388068956,,Kuzhikkad,,9.9777399,76.3850668,,,0,,,0
n9388068957,,Ambalamedu Post Office,,9.9834537,76.3893664,,,0,,,0
n9388068958,,Harimattam Ambalam,,9.9857017,76.3923517,,,0,,,0
n9388068959,,FACT Club,,9.9841643,76.3953263,,,0,,,0
n9388068963,,ESI,,9.9861534,76.3973138,,,0,,,0
n9388068964,,ESI,,9.9861349,76.3971555,,,0,,,0
n9388068965,,Karimugal,,9.9890994,76.3994213,,,0,,,0
n9388068966,,Karimugal,,9.9890479,76.399416,,,0,,,0
n9388068967,,Carbon Company,,9.9918644,76.3979253,,,0,,,0
n9388068968,,Carbon Company,,9.9917138,76.3978797,,,0,,,0
n9388068969,,Chakku Company,,9.994572,76.3967156,,,0,,,0
n9388068970,,Pallimugal,,9.995793,76.3945467,,,0,,,0
n9388068971,,Pallimugal,,9.9957717,76.394508,,,0,,,0
n9388068972,,Padathikara,,10.0012685,76.3942171,,,0,,,0
n9388068973,,Post Office,,10.0040192,76.3982351,,,0,,,0
n9388068974,,Post Office,,10.0040205,76.3980567,,,0,,,0
n9388068975,,Peringala Junction,,10.0056753,76.3995709,,,0,,,0
n9388068976,,Peringala Junction,,10.0056265,76.39943,,,0,,,0
n9388068977,,Ambalapady,,10.0117901,76.4018601,,,0,,,0
n9388068978,,Ambalapady,,10.0117149,76.4018896,,,0,,,0
n9388068979,,Morakkala Church,,10.0175271,76.4021029,,,0,,,0
n9388068980,,Morakkala,,10.0201293,76.4021225,,,0,,,0
n9388068981,,Morakkala,,10.0199771,76.4023027,,,0,,,0
n9388068984,,Pallikkara Health,,10.0231676,76.4025843,,,0,,,0
n9388068985,,Pallikkara Health,,10.0231227,76.4026246,,,0,,,0
n9388068986,,Pallikkara,,10.025179,76.4037175,,,0,,,0
n9388068987,,Pallikkara,,10.0250099,76.4038033,,,0,,,0
n9388068988,,Achappan Kavala,,10.0306978,76.4081351,,,0,,,0
n9388068989,,Maavinchuvadu,,10.0338157,76.4067954,,,0,,,0
n9388068990,,Maavinchuvadu,,10.0338712,76.4068806,,,0,,,0
n9388068991,,Kizhakkambalam,,10.0366867,76.4071172,,,0,,,0
n9388068992,,Twenty 20 Nagar,,10.039312,76.4049219,,,0,,,0
n9388068993,,Thamarachal,,10.0424048,76.4037457,,,0,,,0
n9388068994,,Thamarachal,,10.0423651,76.4036183,,,0,,,0
n9388068995,,Pazhanganad Hospital,,10.044449,76.3971394,,,0,,,0
n9388068996,,Pazhanganad Hospital,,10.0443724,76.3969772,,,0,,,0
n9388068997,,Kappela Pady,,10.0465235,76.3941018,,,0,,,0
n9388068998,,Kappela Pady,,10.0464404,76.3940589,,,0,,,0
n9388068999,,Shapum Pady,,10.0485664,76.3932288,,,0,,,0
n9388069000,,Shapum Pady,,10.0484925,76.3931644,,,0,,,0
n9388069001,,North Pazhangad,,10.0507288,76.3942889,,,0,,,0
n9388069002,,North Pazhangad,,10.0507545,76.3943674,,,0,,,0
n9388069003,,Ashan Pady,,10.0558141,76.3950513,,,0,,,0
n9388069004,,Ashan Pady,,10.0557837,76.3950131,,,0,,,0
n9388069005,,Pukkattupady,,10.0594025,76.3954476,,,0,,,0
n9388069006,,Wire Ropes Junction,,10.0620818,76.3953068,,,0,,,0
n9388069007,,Ashari Pady,,10.0642886,76.3928886,,,0,,,0
n9388069008,,Ashari Pady,,10.0642929,76.392827,,,0,,,0
n9388069009,,Kunjattukara,,10.0653907,76.3899866,,,0,,,0
n9388069010,,NAD Kavala,,10.0696233,76.3857893,,,0,,,0
n9388069011,,Edathala Panchayath,,10.0720111,76.3814617,,,0,,,0
n9388069012,,Edathala Panchayath,,10.0719376,76.38143,,,0,,,0
n9388069013,,Malayil Palli,,10.0748254,76.3796125,,,0,,,0
n9388069014,,Malayil Palli,,10.0747422,76.3795653,,,0,,,0
n9388069016,,Thaikavu Junction,,10.0765617,76.3790511,,,0,,,0
n9388102317,,SOS,,10.077835,76.3773145,,,0,,,0
n9388102318,,Ettekar Pally,,10.0815652,76.3749116,,,0,,,0
n9396704615,,Ettekar Pally,,10.0816876,76.3747618,,,0,,,0
n9396704616,,SOS,,10.0779403,76.3770068,,,0,,,0
n9402200508,,Pukkattupady,,10.0593224,76.3949437,,,0,,,0
n9412471900,,Vijaya Hospital,,9.9703402,76.2985377,,,0,,,0
n9416179581,,Kaloor,,9.9947265,76.2916978,,,0,,,0
n9447183051,,Ghandhi Nagar,,9.9770025,76.2927118,,,0,,,0
n9561988293,,Ernakulam South KSRTC,,9.9778719,76.2891591,,,0,,,0
n9561988294,,South Railway,,9.9767162,76.2917903,,,0,,,0
n9563052003,,Ghandhi Nagar,,9.9771323,76.292823,,,0,,,0
n1,,Ernakulam South KSRTC,,9.97788407264068,76.2890623699121,,,0,,,0
n2,,Gandhi Nagar,,9.97709919370877,76.2927200210849,,,0,,,0
n3,,Gandhinagar Road Junction,,9.97760455960617,76.2944044966898,,,0,,,0
n4,,Kadavanthra,,9.97345900014701,76.2965518834536,,,0,,,0
n5,,Kadavanthra Junction,,9.96758499758456,76.299986761225,,,0,,,0
n6,,Elamkulam Junction,,9.96793095569285,76.3050901151682,,,0,,,0
n7,,Elamkulam,,9.96731874796495,76.3083647790961,,,0,,,0
n8,,Janatha,,9.96816244671296,76.3129141112614,,,0,,,0
n9,,Vyttila Devaswom Board,,9.96660694892404,76.3194774458093,,,0,,,0
n10,,Vyttila,,9.9695862096683,76.321167382914,,,0,,,0
n11,,Vyttila Hub,,9.96809359528015,76.3220772594551,,,0,,,0
n12,,Vyttila Devaswom Board,,9.96645642191323,76.3193857105783,,,0,,,0
n13,,Sub Station,,9.96347199558056,76.3191423008894,,,0,,,0
n14,,OEN,,9.96110903913375,76.3215166398762,,,0,,,0
n15,,Thykoodam Metro Station,,9.95986694880933,76.3240953046991,,,0,,,0
n16,,Thykkoodam Junction,,9.95915327676908,76.325140968856,,,0,,,0
n17,,Chambakkara,,9.95474601290898,76.327888938568,,,0,,,0
n18,,Petta,,9.95022820525054,76.3321729135724,,,0,,,0
n19,,Petta East/Skyline,,9.95163774659605,76.3356749218658,,,0,,,0
n20,,Vadakkekotta,,9.9531951404217,76.3403708661833,,,0,,,0
n21,,S N Junction,,9.95406271617684,76.3450783943646,,,0,,,0
n22,,Thrippunithura,,9.94902542456144,76.3472568200252,,,0,,,0
n23,,Kizhakke Kotta Junction,,9.94508798465568,76.3491422489197,,,0,,,0
n24,,Market Junction,,9.94524229440822,76.349885007719,,,0,,,0
n25,,RCM Hospital,,9.94660195099939,76.3519747936226,,,0,,,0
n26,,Railway Station,,9.94696891561596,76.3533897869731,,,0,,,0
n27,,Chathari,,9.94696891561596,76.3533897869731,,,0,,,0
n28,,Karingachira,,9.95108022999213,76.3573361391915,,,0,,,0
n29,,Karingachira,,9.95114093887715,76.3585401078523,,,0,,,0
n30,,Hill Palace,,9.95195333202128,76.361240759369,,,0,,,0
n31,,Ayurveda Junction,,9.95099874978574,76.3634444124391,,,0,,,0
n32,,Keshavanpady Bus Stop,,9.94719029223926,76.3665032579418,,,0,,,0
n33,,Thiruvankulam Panchayath,,9.94613382756956,76.3679577153165,,,0,,,0
n34,,Thiruvankulam Junction,,9.94381925305599,76.3742061458654,,,0,,,0
n35,,St. George Shrine,,9.94907976044534,76.3831804627237,,,0,,,0
n36,,Sasthamughal,,9.95313570229598,76.3898437817041,,,0,,,0
n37,,Panikkarupady,,9.95517449969614,76.3961910591368,,,0,,,0
n38,,Varikoli,,9.96350197841023,76.4071301968058,,,0,,,0
n39,,Manamthadam,,9.96428090043338,76.4159079519729,,,0,,,0
n40,,Puthencruz,,9.96910477543079,76.4230080742193,,,0,,,0
n41,,Kavumthazham,,9.97127573818524,76.4268308368696,,,0,,,0
n42,,Choondi Police Station,,9.9705369755245,76.4354131193316,,,0,,,0
n43,,Choondy Junction,,9.96963218036556,76.4386612370108,,,0,,,0
n44,,Ambalappady,,9.97104940015704,76.4444243410299,,,0,,,0
n45,,Patham Mile/Vadayampady,,9.97417767276449,76.447773231329,,,0,,,0
n46,,Puthuppanam,,9.97643047609809,76.4579669668296,,,0,,,0
n47,,Pump Junction,,9.97974880471377,76.4648142065669,,,0,,,0
n48,,Kolenchery College,,9.97973060361343,76.4719699595565,,,0,,,0
n49,,Kolenchery Junction,,9.97967044642438,76.4732432890819,,,0,,,0
n50,,Kolenchery Medical College Junction,,9.97935734327546,76.4761693593563,,,0,,,0
n51,,Thennika,,9.98098694661358,76.4817695320808,,,0,,,0
n52,,Kidachira,,9.97831187373852,76.489503960075,,,0,,,0
n53,,Nambiyarpady Junction,,9.97813790979505,76.4934208938269,,,0,,,0
n54,,Kadamattom Church,,9.97668479509312,76.4979808035811,,,0,,,0
n55,,Peruvamuzhi,,9.97549016573168,76.5036104438277,,,0,,,0
n56,,Peruvammuzhi,,9.97614504767793,76.5045847597771,,,0,,,0
n57,,Perummuzhi,,9.97588551067156,76.5108427132798,,,0,,,0
n58,,Badhanippadi,,9.97930266004675,76.5153278817459,,,0,,,0
n59,,Valakom,,9.98123724172303,76.5203805217882,,,0,,,0
n60,,Mekkadampu Simhasana Church,,9.9768948908869,76.5332523432962,,,0,,,0
n61,,Mekkadambu Panchayath,,9.97990361697512,76.540642833094,,,0,,,0
n62,,Kadathy Church,,9.98051563947615,76.5541275600428,,,0,,,0
n63,,Velloorkunnam,,9.98879071399657,76.5787495470419,,,0,,,0
n64,,Kacherithazham,,9.98640826788211,76.577998306636,,,0,,,0
n65,,Aramanapadi,,9.98251029726766,76.5792488140988,,,0,,,0
n66,,P. O. Junction,,9.9805317825391,76.5804235680803,,,0,,,0
n67,,Government Hospital - Muvattupuzha,,9.97954601984612,76.5795158473626,,,0,,,0
n68,,K.S.R.T.C Muvattupuzha Bus Stand,,9.97718073336101,76.5801349513318,,,0,,,0
n69,,K.S.R.T.C Muvattupuzha Bus Stand,,9.97718073336101,76.5801349513318,,,0,,,0
n70,,Government Hospital Muvattupuzha,,9.97955281936976,76.579516131393,,,0,,,0
n71,,Aramanapadi,,9.98241260099602,76.5789453158894,,,0,,,0
n72,,Kacherithazham,,9.98693452993144,76.5775579485649,,,0,,,0
n73,,B.O.C/Nehru Park,,9.98963975164284,76.5785987661,,,0,,,0
n74,,Velloorkunnam,,9.990509570918,76.5775226655065,,,0,,,0
n75,,Kuriyanmala,,9.98826844819469,76.5687306243075,,,0,,,0
n76,,Valakom,,9.98091773763475,76.5205935168278,,,0,,,0
n77,,Badhanipadi,,9.97936180336167,76.5155942220506,,,0,,,0
n78,,Perummuzhi,,9.97579833732993,76.5107712599474,,,0,,,0
n79,,Kadamattom Church,,9.9768161998931,76.497485955216,,,0,,,0
n80,,Nambiyarpady Junction,,9.9780659585631,76.493348061195,,,0,,,0
n81,,Kidachira,,9.97837602920014,76.4893000973596,,,0,,,0
n82,,Thennika,,9.98089270854233,76.4824000690863,,,0,,,0
n83,,Kolenchery Medical College Junction,,9.97925030068953,76.4764056316673,,,0,,,0
n84,,Kolenchery Junction,,9.97969259079523,76.4728502256422,,,0,,,0
n85,,Kolenchery College,,9.97968829374045,76.4719694077884,,,0,,,0
n86,,Pump Junction,,9.97958333474795,76.4646404427359,,,0,,,0
n87,,Puthuppanam,,9.9763107880974,76.4579862155765,,,0,,,0
n88,,Patham Mile/Vadayampady,,9.97387901821299,76.4474129258869,,,0,,,0
n89,,Ambalappady,,9.97090011487923,76.4443749509065,,,0,,,0
n90,,Choondy Junction,,9.96945460313515,76.4383779831061,,,0,,,0
n91,,Choondi Police Station,,9.97038773696102,76.4355237936276,,,0,,,0
n92,,Kavumthazham,,9.97109856566289,76.4266679715434,,,0,,,0
n93,,Puthencruz,,9.96877131236732,76.4228401307712,,,0,,,0
n94,,Manamthadam,,9.96417233405448,76.4160859311457,,,0,,,0
n95,,Varikoli,,9.96315421715227,76.4071943226523,,,0,,,0
n96,,Sasthamughal,,9.95510462146726,76.3960942129141,,,0,,,0
n97,,Kurisumthotty,,9.95300558919534,76.3897409649374,,,0,,,0
n98,,Paalachuvadu,,9.95268503732822,76.3859054634961,,,0,,,0
n99,,St. George Shrine,,9.94890696316293,76.3830334833529,,,0,,,0
n100,,Thiruvankulam Junction,,9.94361215391855,76.3741035749036,,,0,,,0
n101,,Thiruvankulam Panchayath,,9.94610659493382,76.3678012096662,,,0,,,0
n102,,Keshavanpady,,9.94716338307497,76.366402191898,,,0,,,0
n103,,Ayurveda Junction,,9.95077532962306,76.3634007276852,,,0,,,0
n104,,Hill Palace,,9.95182400149278,76.3613453839273,,,0,,,0
n105,,Karingachira,,9.95112617060131,76.358534750177,,,0,,,0
n106,,Chathari,,9.948600305998,76.3554621179341,,,0,,,0
n107,,Railway Station,,9.94681493464283,76.3533285094653,,,0,,,0
n108,,RCM Hospital,,9.94651434109097,76.3518826176037,,,0,,,0
n109,,Market Junction,,9.94524863341193,76.3498913176284,,,0,,,0
n110,,Kizhakke Kotta Junction,,9.94494731019086,76.349002031314,,,0,,,0
n111,,East Fort Gate Junction,,9.94484210856337,76.3489836986107,,,0,,,0
n112,,City Traffic Police,,9.9443930897707,76.3492713056037,,,0,,,0
n113,,Thrippunithura,,9.94325158653864,76.3464842655756,,,0,,,0
n114,,Statue Junction,,9.94487406509995,76.3462081278685,,,0,,,0
n115,,Venkateswara High School,,9.94692908966406,76.342687127039,,,0,,,0
n116,,Ambili Nagar,,9.94862667670907,76.3421041996253,,,0,,,0
n117,,Vadakkekotta,,9.95187647577956,76.3405162391877,,,0,,,0
n118,,Petta East,,9.9512755760298,76.3352582715466,,,0,,,0
n119,,Petta,,9.95005228121341,76.3321746007404,,,0,,,0
n120,,Chambakkara,,9.95439276506668,76.3278039183667,,,0,,,0
n121,,Thykkoodam Junction,,9.95903530123144,76.3250699920136,,,0,,,0
n122,,Thykoodam,,9.95997687598849,76.323479749334,,,0,,,0
n123,,OEN,,9.96110894449627,76.3215221261539,,,0,,,0
n124,,Sub Station,,9.96250042064586,76.3186292450624,,,0,,,0
n125,,Vyttila Junction,,9.9686410672512,76.3172943470187,,,0,,,0
n126,,Janatha,,9.96801909054868,76.313362094688,,,0,,,0
n127,,Elamkulam,,9.96715724105821,76.3086276249636,,,0,,,0
n128,,Elamkulam Junction,,9.96770017285167,76.3051448045137,,,0,,,0
n129,,Kadavanthara Junction,,9.96844431245942,76.2996929048893,,,0,,,0
n130,,Vinayaka,,9.97510580579785,76.2977038258258,,,0,,,0
n131,,Kumaranasan,,9.97729130231197,76.2970334969421,,,0,,,0
n132,,KSRTC Bus Station Ernakulam,,9.97788407264068,76.2890623699121,,,0,,,0
